[
	{
		"type": "示范点",
		"sid": "Y2464",
		"short_name": "沃野牧丰农牧基地",
		"lon": 106.3286,
		"lat": 37.6239,
		"alt": 1077.72
	},
	{
		"type": "示范点",
		"sid": "Y2465",
		"short_name": "欣庆农牧基地",
		"lon": 106.2606,
		"lat": 37.6558,
		"alt": 1237.4
	},
	{
		"type": "示范点",
		"sid": "Y2738",
		"short_name": "青铜峡工业园区气象站",
		"lon": 105.903056,
		"lat": 37.930278,
		"alt": 1199.93
	},
	{
		"type": "示范点",
		"sid": "Y2766",
		"short_name": "青铜峡市大坝镇恒源林牧基地11号牛舍应用气象观测站（农业）",
		"lon": 105.8389,
		"lat": 37.905,
		"alt": 1199.93
	},
	{
		"type": "示范点",
		"sid": "Y2767",
		"short_name": "青铜峡市大坝镇恒源林牧基地13号牛舍应用气象观测站（农业）",
		"lon": 105.8389,
		"lat": 37.9039,
		"alt": 1199.93
	},
	{
		"type": "示范点",
		"sid": "Y2469",
		"short_name": "利通区扁担沟镇沃野牧丰农牧基地1-1牛舍应用气象观测站（农业）",
		"lon": 106.3328,
		"lat": 37.6228,
		"alt": 1199.93
	},
	{
		"type": "示范点",
		"sid": "Y2470",
		"short_name": "利通区扁担沟镇沃野牧丰农牧基地1-2牛舍应用气象观测站（农业）",
		"lon": 106.3322,
		"lat": 37.6217,
		"alt": 1199.93
	},
	{
		"type": "示范点",
		"sid": "Y2471",
		"short_name": "利通区扁担沟镇沃野牧丰农牧基地1-2牛舍应用气象观测站（农业）",
		"lon": 106.3317,
		"lat": 37.6208,
		"alt": 1199.93
	},
	{
		"type": "示范点",
		"sid": "Y2472",
		"short_name": "利通区扁担沟镇欣庆农牧基地5号牛舍应用气象观测站（农业）",
		"lon": 106.2606,
		"lat": 37.6553,
		"alt": 1199.93
	},
	{
		"type": "示范点",
		"sid": "Y2473",
		"short_name": "利通区扁担沟镇欣庆农牧基地7号牛舍应用气象观测站（农业）",
		"lon": 106.26,
		"lat": 37.655,
		"alt": 1199.93
	},
	{
		"type": "示范点",
		"sid": "Y2474",
		"short_name": "利通区扁担沟镇欣庆农牧基地8号牛舍应用气象观测站（农业）",
		"lon": 106.2581,
		"lat": 37.6544,
		"alt": 1199.93
	},
	{
		"type": "气象站",
		"sid": "53617",
		"short_name": "青铜峡国家气象站",
		"lon": 106.0806,
		"lat": 38.0281,
		"alt": 1199.93
	},
	{
		"type": "气象站",
		"sid": "53612",
		"short_name": "吴忠国家气象站",
		"lon": 106.1606,
		"lat": 37.7711,
		"alt": 1199.93
	}
]