[
	{
		"type": "示范点",
		"sid": "Y2464",
		"short_name": "沃野牧丰农牧基地",
		"lon": 106.3286,
		"lat": 37.6239,
		"alt": 1077.72
	},
	{
		"type": "示范点",
		"sid": "Y2465",
		"short_name": "欣庆农牧基地",
		"lon": 106.2606,
		"lat": 37.6558,
		"alt": 1237.4
	},
	{
		"type": "示范点",
		"sid": "Y2738",
		"short_name": "青铜峡工业园区气象站",
		"lon": 105.903056,
		"lat": 37.930278,
		"alt": 1199.93
	},
	{
		"type": "气象站",
		"sid": "53617",
		"short_name": "青铜峡国家气象站",
		"lon": 106.0806,
		"lat": 38.0281,
		"alt": 1199.93
	},
	{
		"type": "气象站",
		"sid": "53612",
		"short_name": "吴忠国家气象站",
		"lon": 106.1606,
		"lat": 37.7711,
		"alt": 1199.93
	}
]